{"type":"Topology","objects":{"ne_50m_geography_regions_points":{"type":"GeometryCollection","geometries":[{"type":"Point","properties":{"scalerank":2,"featurecla":"waterfall","name":"Niagara Falls","comment":null,"name_alt":null,"lat_y":43.087653,"long_x":-79.044073,"region":"North America","subregion":null},"coordinates":[2688,7453]},{"type":"Point","properties":{"scalerank":2,"featurecla":"waterfall","name":"Salto Angel","comment":null,"name_alt":"Angel Falls","lat_y":5.686836,"long_x":-62.061848,"region":"South America","subregion":null},"coordinates":[3169,5104]},{"type":"Point","properties":{"scalerank":2,"featurecla":"waterfall","name":"Iguazu Falls","comment":null,"name_alt":null,"lat_y":-25.568265,"long_x":-54.582842,"region":"South America","subregion":null},"coordinates":[3380,3142]},{"type":"Point","properties":{"scalerank":3,"featurecla":"cape","name":"Gees Gwardafuy","comment":null,"name_alt":null,"lat_y":11.812855,"long_x":51.235173,"region":"Africa","subregion":null},"coordinates":[6377,5490]},{"type":"Point","properties":{"scalerank":3,"featurecla":"waterfall","name":"Victoria Falls","comment":null,"name_alt":null,"lat_y":-17.77079,"long_x":25.460133,"region":"Africa","subregion":null},"coordinates":[5658,3621]},{"type":"Point","properties":{"scalerank":3,"featurecla":"island","name":"Wright I.","comment":null,"name_alt":null,"lat_y":-50.959168,"long_x":-72.995002,"region":"Antarctica","subregion":null},"coordinates":[1616,96]},{"type":"Point","properties":{"scalerank":3,"featurecla":"island","name":"Grant I.","comment":null,"name_alt":null,"lat_y":-50.959168,"long_x":-72.995002,"region":"Antarctica","subregion":null},"coordinates":[1203,70]},{"type":"Point","properties":{"scalerank":3,"featurecla":"island","name":"Newman I.","comment":null,"name_alt":null,"lat_y":-50.959168,"long_x":-72.995002,"region":"Antarctica","subregion":null},"coordinates":[801,0]},{"type":"Point","properties":{"scalerank":3,"featurecla":"island","name":"Dean I.","comment":null,"name_alt":null,"lat_y":-50.959168,"long_x":-72.995002,"region":"Antarctica","subregion":null},"coordinates":[1312,69]},{"type":"Point","properties":{"scalerank":3,"featurecla":"cape","name":"Cape Canaveral","comment":null,"name_alt":null,"lat_y":28.483713,"long_x":-80.534941,"region":"North America","subregion":null},"coordinates":[2645,6535]},{"type":"Point","properties":{"scalerank":3,"featurecla":"cape","name":"Cape Mendocino","comment":null,"name_alt":null,"lat_y":40.350222,"long_x":-124.323474,"region":"North America","subregion":null},"coordinates":[1404,7287]},{"type":"Point","properties":{"scalerank":3,"featurecla":"cape","name":"Cabo San Lucas","comment":null,"name_alt":null,"lat_y":22.887711,"long_x":-109.969843,"region":"North America","subregion":null},"coordinates":[1812,6185]},{"type":"Point","properties":{"scalerank":3,"featurecla":"cape","name":"Cape Churchill","comment":null,"name_alt":null,"lat_y":58.752014,"long_x":-93.182023,"region":"North America","subregion":null},"coordinates":[2287,8437]},{"type":"Point","properties":{"scalerank":3,"featurecla":"cape","name":"Cape Cod","comment":null,"name_alt":null,"lat_y":41.734867,"long_x":-69.964865,"region":"North America","subregion":null},"coordinates":[2943,7384]},{"type":"Point","properties":{"scalerank":3,"featurecla":"cape","name":"Cape May","comment":null,"name_alt":null,"lat_y":37.2017,"long_x":-75.926791,"region":"North America","subregion":null},"coordinates":[2804,7192]},{"type":"Point","properties":{"scalerank":3,"featurecla":"cape","name":"Cabo de Hornos","comment":null,"name_alt":"Cape Horn","lat_y":-55.862824,"long_x":-67.169425,"region":"South America","subregion":null},"coordinates":[3024,1239]},{"type":"Point","properties":{"scalerank":3,"featurecla":"cape","name":"Cape of Good Hope","comment":null,"name_alt":null,"lat_y":-34.307311,"long_x":18.441206,"region":"Africa","subregion":null},"coordinates":[5448,2593]},{"type":"Point","properties":{"scalerank":3,"featurecla":"cape","name":"Cape Palmas","comment":null,"name_alt":null,"lat_y":4.373924,"long_x":-7.457356,"region":"Africa","subregion":null},"coordinates":[4714,5022]},{"type":"Point","properties":{"scalerank":3,"featurecla":"cape","name":"Cape Verde","comment":null,"name_alt":null,"lat_y":14.732312,"long_x":-17.471776,"region":"Africa","subregion":null},"coordinates":[4431,5672]},{"type":"Point","properties":{"scalerank":3,"featurecla":"cape","name":"Cap Bon","comment":null,"name_alt":null,"lat_y":37.073954,"long_x":11.024061,"region":"Africa","subregion":null},"coordinates":[5238,7075]},{"type":"Point","properties":{"scalerank":3,"featurecla":"pole","name":"Oceanic pole of inaccessibility","comment":null,"name_alt":null,"lat_y":-48.865032,"long_x":-123.401986,"region":"Seven seas (open ocean)","subregion":"South Pacific Ocean"},"coordinates":[1432,1678]},{"type":"Point","properties":{"scalerank":3,"featurecla":"pole","name":"South Magnetic Pole 2005 (est)","comment":null,"name_alt":null,"lat_y":-48.865032,"long_x":-123.401986,"region":"Antarctica","subregion":"Southern Ocean"},"coordinates":[8828,695]},{"type":"Point","properties":{"scalerank":3,"featurecla":"pole","name":"North Magnetic Pole 2005 (est)","comment":null,"name_alt":null,"lat_y":-48.865032,"long_x":-123.401986,"region":"Seven seas (open ocean)","subregion":"Arctic Ocean"},"coordinates":[1687,9941]},{"type":"Point","properties":{"scalerank":4,"featurecla":"cape","name":"Lands End","comment":null,"name_alt":null,"lat_y":50.069677,"long_x":-5.668629,"region":"Europe","subregion":"British Isles"},"coordinates":[4765,7892]},{"type":"Point","properties":{"scalerank":4,"featurecla":"cape","name":"Cape York","comment":null,"name_alt":null,"lat_y":76.218919,"long_x":-68.218612,"region":"North America","subregion":"Greenland"},"coordinates":[2994,9534]},{"type":"Point","properties":{"scalerank":4,"featurecla":"cape","name":"Nunap Isua","comment":null,"name_alt":"Cape Farewell","lat_y":59.862583,"long_x":-43.90088,"region":"North America","subregion":"Greenland"},"coordinates":[3683,8507]},{"type":"Point","properties":{"scalerank":4,"featurecla":"cape","name":"Cape Vohimena","comment":null,"name_alt":null,"lat_y":-25.546355,"long_x":45.158683,"region":"Africa","subregion":"Indian Ocean"},"coordinates":[6204,3143]},{"type":"Point","properties":{"scalerank":4,"featurecla":"island","name":"Vavau","comment":null,"name_alt":null,"lat_y":-18.590062,"long_x":-173.976769,"region":"Oceania","subregion":"Polynesia"},"coordinates":[0,3580]},{"type":"Point","properties":{"scalerank":4,"featurecla":"island","name":"I. de Pascua","comment":null,"name_alt":"Easter I.","lat_y":-27.102117,"long_x":-109.367953,"region":"Oceania","subregion":"Polynesia"},"coordinates":[1829,3045]},{"type":"Point","properties":{"scalerank":4,"featurecla":"cape","name":"Cape Agulhas","comment":null,"name_alt":null,"lat_y":-34.801182,"long_x":19.993472,"region":"Africa","subregion":null},"coordinates":[5492,2562]},{"type":"Point","properties":{"scalerank":4,"featurecla":"plain","name":"Plain of Jars","comment":null,"name_alt":null,"lat_y":20.550709,"long_x":101.890532,"region":"Asia","subregion":null},"coordinates":[7810,6038]},{"type":"Point","properties":{"scalerank":4,"featurecla":"cape","name":"Cabo Corrientes","comment":null,"name_alt":null,"lat_y":20.409471,"long_x":-105.683581,"region":"North America","subregion":null},"coordinates":[1934,6030]},{"type":"Point","properties":{"scalerank":4,"featurecla":"cape","name":"Pt. Eugenia","comment":null,"name_alt":null,"lat_y":27.861925,"long_x":-115.07629,"region":"North America","subregion":null},"coordinates":[1668,6496]},{"type":"Point","properties":{"scalerank":4,"featurecla":"cape","name":"Point Conception","comment":null,"name_alt":null,"lat_y":34.582313,"long_x":-120.659016,"region":"North America","subregion":null},"coordinates":[1515,6911]},{"type":"Point","properties":{"scalerank":4,"featurecla":"cape","name":"Cape Hatteras","comment":null,"name_alt":null,"lat_y":35.437762,"long_x":-75.450543,"region":"North America","subregion":null},"coordinates":[2787,6961]},{"type":"Point","properties":{"scalerank":4,"featurecla":"cape","name":"Cape Sable","comment":null,"name_alt":null,"lat_y":25.124896,"long_x":-81.090442,"region":"North America","subregion":null},"coordinates":[2630,6325]},{"type":"Point","properties":{"scalerank":4,"featurecla":"cape","name":"Cape Hope","comment":null,"name_alt":null,"lat_y":68.35638,"long_x":-166.815582,"region":"North America","subregion":null},"coordinates":[203,9040]},{"type":"Point","properties":{"scalerank":4,"featurecla":"cape","name":"Point Barrow","comment":null,"name_alt":null,"lat_y":71.372637,"long_x":-156.615894,"region":"North America","subregion":null},"coordinates":[496,9232]},{"type":"Point","properties":{"scalerank":4,"featurecla":"cape","name":"Punta Negra","comment":null,"name_alt":null,"lat_y":-5.948875,"long_x":-81.108252,"region":"South America","subregion":null},"coordinates":[2629,4374]},{"type":"Point","properties":{"scalerank":4,"featurecla":"cape","name":"Punta Lavapié","comment":null,"name_alt":null,"lat_y":-37.262867,"long_x":-73.606377,"region":"South America","subregion":null},"coordinates":[2842,2413]},{"type":"Point","properties":{"scalerank":4,"featurecla":"cape","name":"Punta Galera","comment":null,"name_alt":null,"lat_y":0.731221,"long_x":-80.062205,"region":"South America","subregion":null},"coordinates":[2659,4793]},{"type":"Point","properties":{"scalerank":4,"featurecla":"cape","name":"Cap Lopez","comment":null,"name_alt":null,"lat_y":-0.604761,"long_x":8.726423,"region":"Africa","subregion":null},"coordinates":[5173,4709]},{"type":"Point","properties":{"scalerank":4,"featurecla":"cape","name":"Cape Bobaomby","comment":null,"name_alt":null,"lat_y":-11.966598,"long_x":49.262904,"region":"Africa","subregion":null},"coordinates":[6320,3996]},{"type":"Point","properties":{"scalerank":4,"featurecla":"cape","name":"Cap Blanc","comment":null,"name_alt":null,"lat_y":20.822108,"long_x":-17.052856,"region":"Africa","subregion":null},"coordinates":[4443,6055]},{"type":"Point","properties":{"scalerank":5,"featurecla":"cape","name":"South West Cape","comment":null,"name_alt":null,"lat_y":-43.510984,"long_x":146.054227,"region":"Oceania","subregion":"Australia"},"coordinates":[9060,2013]},{"type":"Point","properties":{"scalerank":5,"featurecla":"cape","name":"Cape Howe","comment":null,"name_alt":null,"lat_y":-37.488775,"long_x":149.95853,"region":"Oceania","subregion":"Australia"},"coordinates":[9171,2393]},{"type":"Point","properties":{"scalerank":5,"featurecla":"cape","name":"Cape Otway","comment":null,"name_alt":null,"lat_y":-38.857622,"long_x":143.565403,"region":"Oceania","subregion":"Australia"},"coordinates":[8989,2307]},{"type":"Point","properties":{"scalerank":5,"featurecla":"cape","name":"Cape Jaffa","comment":null,"name_alt":null,"lat_y":-36.944244,"long_x":139.690866,"region":"Oceania","subregion":"Australia"},"coordinates":[8880,2426]},{"type":"Point","properties":{"scalerank":5,"featurecla":"cape","name":"Cape Carnot","comment":null,"name_alt":null,"lat_y":-34.920233,"long_x":135.656027,"region":"Oceania","subregion":"Australia"},"coordinates":[8766,2553]},{"type":"Point","properties":{"scalerank":5,"featurecla":"cape","name":"Cape Byron","comment":null,"name_alt":null,"lat_y":-28.658282,"long_x":153.632849,"region":"Oceania","subregion":"Australia"},"coordinates":[9275,2947]},{"type":"Point","properties":{"scalerank":5,"featurecla":"cape","name":"Cape Manifold","comment":null,"name_alt":null,"lat_y":-22.702081,"long_x":150.811228,"region":"Oceania","subregion":"Australia"},"coordinates":[9195,3322]},{"type":"Point","properties":{"scalerank":5,"featurecla":"cape","name":"Cape York","comment":null,"name_alt":null,"lat_y":-10.710859,"long_x":142.522018,"region":"Oceania","subregion":"Australia"},"coordinates":[8961,4075]},{"type":"Point","properties":{"scalerank":5,"featurecla":"cape","name":"Cape Melville","comment":null,"name_alt":null,"lat_y":-14.163629,"long_x":144.506417,"region":"Oceania","subregion":"Australia"},"coordinates":[9017,3858]},{"type":"Point","properties":{"scalerank":5,"featurecla":"cape","name":"Cape Arnhem","comment":null,"name_alt":null,"lat_y":-12.337984,"long_x":136.952429,"region":"Oceania","subregion":"Australia"},"coordinates":[8802,3975]},{"type":"Point","properties":{"scalerank":5,"featurecla":"cape","name":"West Cape Howe","comment":null,"name_alt":null,"lat_y":-35.104301,"long_x":117.597011,"region":"Oceania","subregion":"Australia"},"coordinates":[8255,2543]},{"type":"Point","properties":{"scalerank":5,"featurecla":"cape","name":"Cape Leeuwin","comment":null,"name_alt":null,"lat_y":-34.297841,"long_x":115.10633,"region":"Oceania","subregion":"Australia"},"coordinates":[8185,2591]},{"type":"Point","properties":{"scalerank":5,"featurecla":"cape","name":"Cape Pasley","comment":null,"name_alt":null,"lat_y":-33.929054,"long_x":123.517283,"region":"Oceania","subregion":"Australia"},"coordinates":[8423,2616]},{"type":"Point","properties":{"scalerank":5,"featurecla":"cape","name":"Cape Londonderry","comment":null,"name_alt":null,"lat_y":-13.713856,"long_x":126.964514,"region":"Oceania","subregion":"Australia"},"coordinates":[8520,3884]},{"type":"Point","properties":{"scalerank":5,"featurecla":"cape","name":"Steep Point","comment":null,"name_alt":null,"lat_y":-26.16822,"long_x":113.169959,"region":"Oceania","subregion":"Australia"},"coordinates":[8129,3105]},{"type":"Point","properties":{"scalerank":5,"featurecla":"cape","name":"North West Cape","comment":null,"name_alt":null,"lat_y":-21.809776,"long_x":114.117534,"region":"Oceania","subregion":"Australia"},"coordinates":[8158,3378]},{"type":"Point","properties":{"scalerank":5,"featurecla":"cape","name":"Cabo Gracias a Dios","comment":null,"name_alt":null,"lat_y":14.994242,"long_x":-83.15866,"region":"North America","subregion":"Central America"},"coordinates":[2571,5689]},{"type":"Point","properties":{"scalerank":5,"featurecla":"cape","name":"Cape Brewster","comment":null,"name_alt":null,"lat_y":70.150754,"long_x":-22.122616,"region":"North America","subregion":"Greenland"},"coordinates":[4299,9153]},{"type":"Point","properties":{"scalerank":5,"featurecla":"cape","name":"Cape Morris Jesup","comment":null,"name_alt":null,"lat_y":83.626331,"long_x":-32.491541,"region":"North America","subregion":"Greenland"},"coordinates":[4006,9999]},{"type":"Point","properties":{"scalerank":5,"featurecla":"island","name":"Grmsey","comment":null,"name_alt":null,"lat_y":66.669359,"long_x":-18.251096,"region":"Europe","subregion":"Iceland"},"coordinates":[4409,8934]},{"type":"Point","properties":{"scalerank":5,"featurecla":"island","name":"Surtsey","comment":null,"name_alt":null,"lat_y":63.217764,"long_x":-20.434929,"region":"Europe","subregion":"Iceland"},"coordinates":[4347,8717]},{"type":"Point","properties":{"scalerank":5,"featurecla":"cape","name":"Cap Est","comment":null,"name_alt":null,"lat_y":-15.274849,"long_x":50.499889,"region":"Africa","subregion":"Indian Ocean"},"coordinates":[6355,3788]},{"type":"Point","properties":{"scalerank":5,"featurecla":"cape","name":"Cape Cretin","comment":null,"name_alt":null,"lat_y":-6.637492,"long_x":147.852392,"region":"Oceania","subregion":"Melanesia"},"coordinates":[9112,4330]},{"type":"Point","properties":{"scalerank":5,"featurecla":"island","name":"Îles Chesterfield","comment":null,"name_alt":null,"lat_y":-19.20447,"long_x":159.95171,"region":"Oceania","subregion":"Melanesia"},"coordinates":[9454,3541]},{"type":"Point","properties":{"scalerank":5,"featurecla":"island","name":"Pagan","comment":null,"name_alt":null,"lat_y":18.119631,"long_x":145.785087,"region":"Oceania","subregion":"Micronesia"},"coordinates":[9053,5885]},{"type":"Point","properties":{"scalerank":5,"featurecla":"island","name":"Wake I.","comment":null,"name_alt":null,"lat_y":19.303497,"long_x":166.63626,"region":"Oceania","subregion":"Micronesia"},"coordinates":[9643,5959]},{"type":"Point","properties":{"scalerank":5,"featurecla":"island","name":"Tabiteuea","comment":null,"name_alt":null,"lat_y":-1.201405,"long_x":174.755207,"region":"Oceania","subregion":"Micronesia"},"coordinates":[9873,4672]},{"type":"Point","properties":{"scalerank":5,"featurecla":"island","name":"Aranuka","comment":null,"name_alt":null,"lat_y":0.226766,"long_x":173.626286,"region":"Oceania","subregion":"Micronesia"},"coordinates":[9841,4761]},{"type":"Point","properties":{"scalerank":5,"featurecla":"island","name":"Nauru","comment":null,"name_alt":null,"lat_y":-0.505856,"long_x":166.930778,"region":"Oceania","subregion":"Micronesia"},"coordinates":[9652,4715]},{"type":"Point","properties":{"scalerank":5,"featurecla":"island","name":"Ebon","comment":null,"name_alt":null,"lat_y":4.59977,"long_x":168.736432,"region":"Oceania","subregion":"Micronesia"},"coordinates":[9703,5036]},{"type":"Point","properties":{"scalerank":5,"featurecla":"island","name":"Jaluit","comment":null,"name_alt":null,"lat_y":5.964455,"long_x":169.682894,"region":"Oceania","subregion":"Micronesia"},"coordinates":[9730,5122]},{"type":"Point","properties":{"scalerank":5,"featurecla":"island","name":"Mili","comment":null,"name_alt":null,"lat_y":6.107334,"long_x":171.725875,"region":"Oceania","subregion":"Micronesia"},"coordinates":[9787,5131]},{"type":"Point","properties":{"scalerank":5,"featurecla":"island","name":"Majuro","comment":null,"name_alt":null,"lat_y":7.118009,"long_x":171.159743,"region":"Oceania","subregion":"Micronesia"},"coordinates":[9771,5194]},{"type":"Point","properties":{"scalerank":5,"featurecla":"island","name":"Ailinglapalap","comment":null,"name_alt":null,"lat_y":7.276392,"long_x":168.596926,"region":"Oceania","subregion":"Micronesia"},"coordinates":[9699,5204]},{"type":"Point","properties":{"scalerank":5,"featurecla":"island","name":"Kwajalein","comment":null,"name_alt":null,"lat_y":8.746619,"long_x":167.735072,"region":"Oceania","subregion":"Micronesia"},"coordinates":[9674,5297]},{"type":"Point","properties":{"scalerank":5,"featurecla":"island","name":"Rongelap","comment":null,"name_alt":null,"lat_y":11.164329,"long_x":166.869876,"region":"Oceania","subregion":"Micronesia"},"coordinates":[9650,5448]},{"type":"Point","properties":{"scalerank":5,"featurecla":"island","name":"Bikini","comment":null,"name_alt":null,"lat_y":11.639231,"long_x":165.550698,"region":"Oceania","subregion":"Micronesia"},"coordinates":[9613,5478]},{"type":"Point","properties":{"scalerank":5,"featurecla":"cape","name":"Cape Reinga","comment":null,"name_alt":null,"lat_y":-34.432767,"long_x":172.7285,"region":"Oceania","subregion":"New Zealand"},"coordinates":[9815,2586]},{"type":"Point","properties":{"scalerank":5,"featurecla":"island","name":"Kanton","comment":null,"name_alt":null,"lat_y":-2.757106,"long_x":-171.71703,"region":"Oceania","subregion":"Polynesia"},"coordinates":[64,4574]},{"type":"Point","properties":{"scalerank":5,"featurecla":"island","name":"Tabuaeran","comment":null,"name_alt":"Fanning I.","lat_y":3.866545,"long_x":-159.326781,"region":"Oceania","subregion":"Polynesia"},"coordinates":[415,4990]},{"type":"Point","properties":{"scalerank":5,"featurecla":"island","name":"Malden","comment":null,"name_alt":null,"lat_y":-4.042491,"long_x":-154.983478,"region":"Oceania","subregion":"Polynesia"},"coordinates":[538,4493]},{"type":"Point","properties":{"scalerank":5,"featurecla":"island","name":"Rarotonga","comment":null,"name_alt":null,"lat_y":-21.201867,"long_x":-159.797637,"region":"Oceania","subregion":"Polynesia"},"coordinates":[401,3416]},{"type":"Point","properties":{"scalerank":5,"featurecla":"island","name":"Rangiroa","comment":null,"name_alt":null,"lat_y":-15.2046,"long_x":-147.773967,"region":"Oceania","subregion":"Polynesia"},"coordinates":[742,3792]},{"type":"Point","properties":{"scalerank":5,"featurecla":"island","name":"Funafuti","comment":null,"name_alt":null,"lat_y":-8.491577,"long_x":179.19841,"region":"Oceania","subregion":"Polynesia"},"coordinates":[9999,4214]},{"type":"Point","properties":{"scalerank":5,"featurecla":"island","name":"St. Croix","comment":null,"name_alt":null,"lat_y":17.762944,"long_x":-64.763088,"region":"North America","subregion":"West Indies"},"coordinates":[3092,5863]},{"type":"Point","properties":{"scalerank":5,"featurecla":"island","name":"Grand Cayman","comment":null,"name_alt":null,"lat_y":19.315829,"long_x":-81.271416,"region":"North America","subregion":"West Indies"},"coordinates":[2625,5960]},{"type":"Point","properties":{"scalerank":5,"featurecla":"island","name":"San  Salvador","comment":null,"name_alt":null,"lat_y":24.052793,"long_x":-74.492848,"region":"North America","subregion":"West Indies"},"coordinates":[2817,6258]},{"type":"Point","properties":{"scalerank":5,"featurecla":"island","name":"Grenada","comment":null,"name_alt":null,"lat_y":12.105978,"long_x":-61.723079,"region":"North America","subregion":"West Indies"},"coordinates":[3178,5507]},{"type":"Point","properties":{"scalerank":5,"featurecla":"island","name":"Barbuda","comment":null,"name_alt":null,"lat_y":17.622525,"long_x":-61.789243,"region":"North America","subregion":"West Indies"},"coordinates":[3176,5854]},{"type":"Point","properties":{"scalerank":5,"featurecla":"island","name":"Antigua","comment":null,"name_alt":null,"lat_y":17.040441,"long_x":-61.775982,"region":"North America","subregion":"West Indies"},"coordinates":[3177,5817]},{"type":"Point","properties":{"scalerank":5,"featurecla":"island","name":"Guadeloupe","comment":null,"name_alt":null,"lat_y":16.180583,"long_x":-61.656947,"region":"North America","subregion":"West Indies"},"coordinates":[3180,5763]},{"type":"Point","properties":{"scalerank":5,"featurecla":"island","name":"Dominica","comment":null,"name_alt":null,"lat_y":15.452943,"long_x":-61.352652,"region":"North America","subregion":"West Indies"},"coordinates":[3189,5718]},{"type":"Point","properties":{"scalerank":5,"featurecla":"island","name":"Martinique","comment":null,"name_alt":null,"lat_y":14.672462,"long_x":-61.008715,"region":"North America","subregion":"West Indies"},"coordinates":[3198,5669]},{"type":"Point","properties":{"scalerank":5,"featurecla":"island","name":"Saint Lucia","comment":null,"name_alt":null,"lat_y":13.918332,"long_x":-60.982225,"region":"North America","subregion":"West Indies"},"coordinates":[3199,5621]},{"type":"Point","properties":{"scalerank":5,"featurecla":"island","name":"Saint Vincent","comment":null,"name_alt":null,"lat_y":13.270131,"long_x":-61.207143,"region":"North America","subregion":"West Indies"},"coordinates":[3193,5581]},{"type":"Point","properties":{"scalerank":5,"featurecla":"island","name":"Barbados","comment":null,"name_alt":null,"lat_y":13.164326,"long_x":-59.566742,"region":"North America","subregion":"West Indies"},"coordinates":[3239,5574]},{"type":"Point","properties":{"scalerank":5,"featurecla":"island","name":"Tobago","comment":null,"name_alt":null,"lat_y":11.259334,"long_x":-60.677992,"region":"South America","subregion":"West Indies"},"coordinates":[3208,5454]},{"type":"Point","properties":{"scalerank":5,"featurecla":"island","name":"Margarita","comment":null,"name_alt":null,"lat_y":10.981467,"long_x":-64.051401,"region":"South America","subregion":"West Indies"},"coordinates":[3112,5437]},{"type":"Point","properties":{"scalerank":5,"featurecla":"island","name":"Curaao","comment":null,"name_alt":null,"lat_y":12.185355,"long_x":-68.999109,"region":"North America","subregion":"West Indies"},"coordinates":[2972,5512]},{"type":"Point","properties":{"scalerank":5,"featurecla":"island","name":"Aruba","comment":null,"name_alt":null,"lat_y":12.502849,"long_x":-69.96488,"region":"North America","subregion":"West Indies"},"coordinates":[2945,5532]},{"type":"Point","properties":{"scalerank":5,"featurecla":"cape","name":"Ras Banäs","comment":null,"name_alt":null,"lat_y":23.950592,"long_x":35.778059,"region":"Africa","subregion":null},"coordinates":[5939,6251]},{"type":"Point","properties":{"scalerank":5,"featurecla":"cape","name":"Ponta das Salinas","comment":null,"name_alt":null,"lat_y":-12.832908,"long_x":12.928991,"region":"Africa","subregion":null},"coordinates":[5293,3940]},{"type":"Point","properties":{"scalerank":5,"featurecla":"cape","name":"Ponta das Palmeirinhas","comment":null,"name_alt":null,"lat_y":-9.071387,"long_x":12.999549,"region":"Africa","subregion":null},"coordinates":[5295,4176]},{"type":"Point","properties":{"scalerank":5,"featurecla":"cape","name":"Cabo Bojador","comment":null,"name_alt":null,"lat_y":26.157836,"long_x":-14.473111,"region":"Africa","subregion":null},"coordinates":[4516,6390]},{"type":"Point","properties":{"scalerank":5,"featurecla":"cape","name":"Cape Comorin","comment":null,"name_alt":null,"lat_y":8.143554,"long_x":77.471497,"region":"Asia","subregion":null},"coordinates":[7120,5255]},{"type":"Point","properties":{"scalerank":5,"featurecla":"cape","name":"Dondra Head","comment":null,"name_alt":null,"lat_y":5.947528,"long_x":80.616321,"region":"Asia","subregion":null},"coordinates":[7207,5120]},{"type":"Point","properties":{"scalerank":5,"featurecla":"cape","name":"Cape Yelizavety","comment":null,"name_alt":null,"lat_y":54.416083,"long_x":142.720445,"region":"Asia","subregion":null},"coordinates":[8966,8165]},{"type":"Point","properties":{"scalerank":5,"featurecla":"cape","name":"Pt. Yuzhnyy","comment":null,"name_alt":null,"lat_y":57.733572,"long_x":156.796426,"region":"Asia","subregion":null},"coordinates":[9365,8373]},{"type":"Point","properties":{"scalerank":5,"featurecla":"cape","name":"Cape Sata","comment":null,"name_alt":null,"lat_y":31.026941,"long_x":130.695089,"region":"Asia","subregion":null},"coordinates":[8626,6696]},{"type":"Point","properties":{"scalerank":5,"featurecla":"cape","name":"Cape Aniva","comment":null,"name_alt":null,"lat_y":46.081706,"long_x":143.43487,"region":"Asia","subregion":null},"coordinates":[8986,7641]},{"type":"Point","properties":{"scalerank":5,"featurecla":"cape","name":"Cape Terpeniya","comment":null,"name_alt":null,"lat_y":48.66928,"long_x":144.712582,"region":"Asia","subregion":null},"coordinates":[9023,7804]},{"type":"Point","properties":{"scalerank":5,"featurecla":"cape","name":"Cape Lopatka","comment":null,"name_alt":null,"lat_y":50.914155,"long_x":156.651536,"region":"Asia","subregion":null},"coordinates":[9361,7945]},{"type":"Point","properties":{"scalerank":5,"featurecla":"cape","name":"Cape Ozernoy","comment":null,"name_alt":null,"lat_y":57.7708,"long_x":163.246685,"region":"Asia","subregion":null},"coordinates":[9547,8375]},{"type":"Point","properties":{"scalerank":5,"featurecla":"cape","name":"Cape Olyutorskiy","comment":null,"name_alt":null,"lat_y":59.960807,"long_x":170.31265,"region":"Asia","subregion":null},"coordinates":[9747,8513]},{"type":"Point","properties":{"scalerank":5,"featurecla":"cape","name":"Cape Navarin","comment":null,"name_alt":null,"lat_y":62.327239,"long_x":179.074225,"region":"Asia","subregion":null},"coordinates":[9995,8661]},{"type":"Point","properties":{"scalerank":5,"featurecla":"cape","name":"Cape Lopatka","comment":null,"name_alt":null,"lat_y":71.907853,"long_x":150.066042,"region":"Asia","subregion":null},"coordinates":[9174,9263]},{"type":"Point","properties":{"scalerank":5,"featurecla":"cape","name":"Cape Ince","comment":null,"name_alt":null,"lat_y":42.084312,"long_x":34.983358,"region":"Asia","subregion":null},"coordinates":[5916,7390]},{"type":"Point","properties":{"scalerank":5,"featurecla":"cape","name":"Ras Fartak","comment":null,"name_alt":null,"lat_y":15.677412,"long_x":52.229105,"region":"Asia","subregion":null},"coordinates":[6405,5731]},{"type":"Point","properties":{"scalerank":5,"featurecla":"cape","name":"Ras Sharbatat","comment":null,"name_alt":null,"lat_y":18.164534,"long_x":56.56827,"region":"Asia","subregion":null},"coordinates":[6527,5888]},{"type":"Point","properties":{"scalerank":5,"featurecla":"cape","name":"Ra's al Had","comment":null,"name_alt":null,"lat_y":22.530158,"long_x":59.849134,"region":"Asia","subregion":null},"coordinates":[6619,6161]},{"type":"Point","properties":{"scalerank":5,"featurecla":"island","name":"Hachijjima","comment":null,"name_alt":null,"lat_y":33.109796,"long_x":139.804903,"region":"Asia","subregion":null},"coordinates":[8884,6827]},{"type":"Point","properties":{"scalerank":5,"featurecla":"cape","name":"Nordkapp","comment":null,"name_alt":null,"lat_y":71.18337,"long_x":25.662398,"region":"Europe","subregion":null},"coordinates":[5652,9216]},{"type":"Point","properties":{"scalerank":5,"featurecla":"cape","name":"Cabo de São Vicentete","comment":null,"name_alt":null,"lat_y":37.038304,"long_x":-8.969391,"region":"Europe","subregion":null},"coordinates":[4672,7073]},{"type":"Point","properties":{"scalerank":5,"featurecla":"cape","name":"Cabo Fisterra","comment":null,"name_alt":null,"lat_y":42.952418,"long_x":-9.267837,"region":"Europe","subregion":null},"coordinates":[4663,7443]},{"type":"Point","properties":{"scalerank":5,"featurecla":"cape","name":"Cape San Blas","comment":null,"name_alt":null,"lat_y":29.713967,"long_x":-85.270961,"region":"North America","subregion":null},"coordinates":[2511,6613]},{"type":"Point","properties":{"scalerank":5,"featurecla":"cape","name":"Cape Sable","comment":null,"name_alt":null,"lat_y":43.469097,"long_x":-65.610769,"region":"North America","subregion":null},"coordinates":[3068,7477]},{"type":"Point","properties":{"scalerank":5,"featurecla":"cape","name":"Cape Bauld","comment":null,"name_alt":null,"lat_y":51.568576,"long_x":-55.430306,"region":"North America","subregion":null},"coordinates":[3356,7986]},{"type":"Point","properties":{"scalerank":5,"featurecla":"cape","name":"Cape Fear","comment":null,"name_alt":null,"lat_y":33.867949,"long_x":-77.990568,"region":"North America","subregion":null},"coordinates":[2718,6874]},{"type":"Point","properties":{"scalerank":5,"featurecla":"island","name":"I. Guadalupe","comment":null,"name_alt":null,"lat_y":29.052552,"long_x":-118.317465,"region":"Seven seas (open ocean)","subregion":"North Pacific Ocean"},"coordinates":[1576,6572]},{"type":"Point","properties":{"scalerank":5,"featurecla":"island","name":"Miquelon","comment":null,"name_alt":null,"lat_y":46.929526,"long_x":-56.329884,"region":"North America","subregion":null},"coordinates":[3331,7694]},{"type":"Point","properties":{"scalerank":5,"featurecla":"island","name":"I. Robinson Crusoe","comment":null,"name_alt":null,"lat_y":-33.589852,"long_x":-78.872522,"region":"Seven seas (open ocean)","subregion":"South Pacific Ocean"},"coordinates":[2693,2638]},{"type":"Point","properties":{"scalerank":5,"featurecla":"cape","name":"Cabo Orange","comment":null,"name_alt":null,"lat_y":4.125735,"long_x":-51.242144,"region":"South America","subregion":null},"coordinates":[3474,5007]},{"type":"Point","properties":{"scalerank":5,"featurecla":"cape","name":"Cabo de Santa Marta Grande","comment":null,"name_alt":null,"lat_y":-28.558078,"long_x":-48.735526,"region":"South America","subregion":null},"coordinates":[3544,2953]},{"type":"Point","properties":{"scalerank":5,"featurecla":"cape","name":"Punta del Este","comment":null,"name_alt":null,"lat_y":-34.975503,"long_x":-54.933154,"region":"South America","subregion":null},"coordinates":[3370,2551]},{"type":"Point","properties":{"scalerank":5,"featurecla":"cape","name":"Cabo San Antonio","comment":null,"name_alt":null,"lat_y":-36.381052,"long_x":-56.655377,"region":"South America","subregion":null},"coordinates":[3320,2461]},{"type":"Point","properties":{"scalerank":5,"featurecla":"cape","name":"Cabo Corrientes","comment":null,"name_alt":null,"lat_y":-38.135985,"long_x":-57.546212,"region":"South America","subregion":null},"coordinates":[3296,2357]},{"type":"Point","properties":{"scalerank":5,"featurecla":"cape","name":"Punta Rasa","comment":null,"name_alt":null,"lat_y":-40.834718,"long_x":-62.282201,"region":"South America","subregion":null},"coordinates":[3163,2190]},{"type":"Point","properties":{"scalerank":5,"featurecla":"cape","name":"Cabo Dos Bahías","comment":null,"name_alt":null,"lat_y":-44.9887,"long_x":-65.615952,"region":"South America","subregion":null},"coordinates":[3070,1928]},{"type":"Point","properties":{"scalerank":5,"featurecla":"cape","name":"Cabo Delgado","comment":null,"name_alt":null,"lat_y":-10.670103,"long_x":40.624309,"region":"Africa","subregion":null},"coordinates":[6076,4077]},{"type":"Point","properties":{"scalerank":5,"featurecla":"cape","name":"Ponta da Barra","comment":null,"name_alt":null,"lat_y":-23.829888,"long_x":35.515696,"region":"Africa","subregion":null},"coordinates":[5931,3251]},{"type":"Point","properties":{"scalerank":5,"featurecla":"cape","name":"Ponta São Sebastio","comment":null,"name_alt":null,"lat_y":-22.118899,"long_x":35.480417,"region":"Africa","subregion":null},"coordinates":[5930,3358]},{"type":"Point","properties":{"scalerank":5,"featurecla":"cape","name":"Ras Cantin","comment":null,"name_alt":null,"lat_y":32.581636,"long_x":-9.273918,"region":"Africa","subregion":null},"coordinates":[4663,6793]},{"type":"Point","properties":{"scalerank":5,"featurecla":"cape","name":"Ras Kasr","comment":null,"name_alt":null,"lat_y":18.076817,"long_x":38.573746,"region":"Africa","subregion":null},"coordinates":[6018,5882]},{"type":"Point","properties":{"scalerank":5,"featurecla":"cape","name":"Ponta de Jericoacoara","comment":null,"name_alt":null,"lat_y":-2.85044,"long_x":-40.067208,"region":"South America","subregion":null},"coordinates":[3793,4568]},{"type":"Point","properties":{"scalerank":5,"featurecla":"cape","name":"Cabo de São Roque","comment":null,"name_alt":null,"lat_y":-5.193476,"long_x":-35.447654,"region":"South America","subregion":null},"coordinates":[3920,4423]},{"type":"Point","properties":{"scalerank":5,"featurecla":"cape","name":"Ponta da Baleia","comment":null,"name_alt":null,"lat_y":-17.710136,"long_x":-39.157619,"region":"South America","subregion":null},"coordinates":[3817,3637]},{"type":"Point","properties":{"scalerank":5,"featurecla":"cape","name":"Cabo de São Tomé","comment":null,"name_alt":null,"lat_y":-21.996382,"long_x":-41.009692,"region":"South America","subregion":null},"coordinates":[3765,3367]},{"type":"Point","properties":{"scalerank":5,"featurecla":"cape","name":"Cabo Frio","comment":null,"name_alt":null,"lat_y":-22.869501,"long_x":-41.962188,"region":"South America","subregion":null},"coordinates":[3740,3318]},{"type":"Point","properties":{"scalerank":5,"featurecla":"cape","name":"Cabo San Diego","comment":null,"name_alt":null,"lat_y":-54.6406,"long_x":-65.21365,"region":"South America","subregion":null},"coordinates":[3079,1316]},{"type":"Point","properties":{"scalerank":5,"featurecla":"cape","name":"Cabo Tres Puntas","comment":null,"name_alt":null,"lat_y":-47.237629,"long_x":-65.774707,"region":"South America","subregion":null},"coordinates":[3064,1775]},{"type":"Point","properties":{"scalerank":5,"featurecla":"cape","name":"Cap Saint André","comment":null,"name_alt":null,"lat_y":-16.174457,"long_x":44.467405,"region":"Africa","subregion":null},"coordinates":[6185,3731]},{"type":"Point","properties":{"scalerank":5,"featurecla":"cape","name":"Cape St. Lucia","comment":null,"name_alt":null,"lat_y":-28.552694,"long_x":32.367221,"region":"Africa","subregion":null},"coordinates":[5842,2954]},{"type":"Point","properties":{"scalerank":5,"featurecla":"cape","name":"Cape St. Francis","comment":null,"name_alt":null,"lat_y":-34.171766,"long_x":24.817688,"region":"Africa","subregion":null},"coordinates":[5629,2600]},{"type":"Point","properties":{"scalerank":5,"featurecla":"island","name":"Minamitori-shima","comment":null,"name_alt":"Marcus I.","lat_y":24.319813,"long_x":153.958899,"region":"Seven seas (open ocean)","subregion":"North Pacific Ocean"},"coordinates":[9284,6275]},{"type":"Point","properties":{"scalerank":5,"featurecla":"island","name":"Is. Martin Vaz","comment":null,"name_alt":null,"lat_y":-20.559422,"long_x":-29.338439,"region":"Seven seas (open ocean)","subregion":"Southern Atlantic Ocean"},"coordinates":[4095,3456]},{"type":"Point","properties":{"scalerank":5,"featurecla":"island","name":"Rockall","comment":null,"name_alt":null,"lat_y":58.163524,"long_x":-12.408715,"region":"Seven seas (open ocean)","subregion":"North Atlantic Ocean"},"coordinates":[4574,8400]},{"type":"Point","properties":{"scalerank":5,"featurecla":"island","name":"I. de Cozumel","comment":null,"name_alt":null,"lat_y":20.444687,"long_x":-86.880555,"region":"North America","subregion":null},"coordinates":[2466,6031]},{"type":"Point","properties":{"scalerank":5,"featurecla":"island","name":"Bermuda Islands","comment":null,"name_alt":null,"lat_y":32.317339,"long_x":-64.742895,"region":"Seven seas (open ocean)","subregion":"North Atlantic Ocean"},"coordinates":[3093,6777]}]}},"arcs":[],"transform":{"scale":[0.03532104309063718,0.015923406305474296],"translate":[-173.97673499257252,-75.59185149531842]}}